City,Cloudiness,Country,Date,Humidity,Lat,Lng,Max Temp,Wind Speed
Hilo,40,US,1634746598,76,19.7297,-155.09,74.93,5.75
Prince Rupert,40,CA,1634743194,87,54.3161,-130.3201,48.29,11.5
Tiksi,100,RU,1634771671,93,71.6872,128.8694,13.89,6.2
Kaitangata,31,NZ,1634751301,63,-46.2817,169.8464,49.66,8.08
Ushuaia,40,AR,1634807313,46,-54.8,-68.3,46.06,10.36
Kumul,95,CN,1634774773,15,42.8,93.45,61.79,7.07
Rikitea,63,PF,1634739750,72,-23.1203,-134.9692,74.82,19.22
Castro,20,BR,1634805629,99,-24.7911,-50.0119,48.4,6.8
Dikson,100,RU,1634784337,56,73.5069,80.5464,27.54,8.39
Carutapera,23,BR,1634805853,85,-1.195,-46.02,77.85,5.5
Mujiayingzi,13,CN,1634768634,29,42.1167,118.7833,49.3,13.53
Ketchikan,90,US,1634743646,87,55.3422,-131.6461,50.47,9.22
Barrow,90,US,1634753577,86,71.2906,-156.7887,28.42,16.11
Hokitika,51,NZ,1634751372,58,-42.7167,170.9667,58.48,7.92
Ponta do Sol,95,PT,1634800611,74,32.6667,-17.1,74.01,6.6
Bredasdorp,61,ZA,1634788208,96,-34.5322,20.0403,56.28,3.6
Tuktoyaktuk,72,CA,1634747089,84,69.4541,-133.0374,25.61,5.39
Mar del Plata,0,AR,1634806557,46,-38.0023,-57.5575,57.87,11.99
Bethel,1,US,1634814740,79,41.3712,-73.414,66.22,0.0
Bluff,11,NZ,1634751631,63,-46.6,168.3333,49.06,12.77
Tāybād,0,IR,1634782042,42,34.74,60.7756,56.48,21.0
Albany,35,US,1634814971,73,42.6001,-73.9662,61.38,4.61
Ahipara,100,NZ,1634751444,96,-35.1667,173.1667,61.56,8.37
Hithadhoo,96,MV,1634777299,72,-0.6,73.0833,82.26,9.15
Vaini,91,TO,1634835860,67,-21.2,-175.2,74.25,17.94
Lālmohan,100,BD,1634774138,77,22.3384,90.7419,83.16,6.64
Tiarei,60,PF,1634743489,78,-17.5333,-149.3333,73.42,9.37
Lebu,100,CL,1634810446,92,-37.6167,-73.65,51.06,6.31
New Norfolk,82,AU,1634757097,42,-42.7826,147.0587,74.66,4.0
Tasiilaq,79,GL,1634809536,48,65.6145,-37.6368,41.16,9.64
Williams Lake,78,CA,1634740969,83,52.1415,-122.1445,35.22,1.01
Port Hedland,0,AU,1634765439,13,-20.3167,118.5667,96.85,5.75
Palafrugell,59,ES,1634796390,67,41.9174,3.1631,66.7,1.01
Kemijärvi,100,FI,1634794193,97,66.7131,27.4306,28.33,10.25
Bengkulu,22,ID,1634770151,68,-3.8004,102.2655,83.52,4.97
Pelym,13,RU,1634784534,76,61.0108,61.9978,29.89,4.41
Atuona,6,PF,1634741393,79,-9.8,-139.0333,77.76,18.45
Abnūb,0,EG,1634788708,69,27.2696,31.1511,65.25,10.16
Itarema,100,BR,1634804309,82,-2.9248,-39.9167,78.73,7.4
East London,40,ZA,1634786426,75,-33.0153,27.9116,62.92,11.74
Nanzhou,100,CN,1634769318,75,29.3596,112.4024,56.28,5.1
Esim,100,GH,1634795624,90,4.8699,-2.2405,76.19,6.35
Mataura,3,NZ,1634751545,42,-46.1927,168.8643,58.08,5.12
Kudahuvadhoo,37,MV,1634777492,70,2.6708,72.8944,82.56,11.36
Darhan,0,MN,1634772383,40,49.4867,105.9228,44.53,8.81
Airai,59,TL,1634764361,33,-8.9266,125.4092,82.26,2.28
Mehamn,40,NO,1634795687,60,71.0357,27.8492,35.55,9.22
Jamestown,1,US,1634816196,83,42.097,-79.2353,58.59,1.99
Kaohsiung City,40,TW,1634767053,65,22.6163,120.3133,87.75,8.01
Qaanaaq,77,GL,1634824327,96,77.484,-69.3632,9.07,5.01
Lake City,1,US,1634816198,94,30.1897,-82.6393,66.0,4.61
Codrington,99,AU,1634758695,63,-38.2667,141.9667,69.04,8.23
Isangel,100,VU,1634753317,92,-19.55,169.2667,76.42,15.61
Gorontalo,62,ID,1634765358,76,0.5412,123.0595,85.39,2.82
Mount Gambier,86,AU,1634759016,62,-37.8333,140.7667,67.66,10.22
Hong Kong,97,HK,1634768513,83,22.2855,114.1577,84.04,1.01
Busselton,97,AU,1634765418,68,-33.65,115.3333,63.05,13.62
Longyan,100,CN,1634767973,92,25.1072,117.0225,61.84,3.89
Paamiut,0,GL,1634811578,51,61.994,-49.6678,35.46,5.79
Hermanus,24,ZA,1634788410,81,-34.4187,19.2345,58.89,2.37
Khatanga,100,RU,1634778163,97,71.9667,102.5,24.82,3.11
Manicoré,91,BR,1634809306,75,-5.8092,-61.3003,78.82,1.7
Ribeira Grande,73,PT,1634803787,65,38.5167,-28.7,69.62,5.75
Kochevo,64,RU,1634786126,93,59.5994,54.3125,27.07,5.21
Yeppoon,95,AU,1634757571,69,-23.1333,150.7333,85.78,12.19
Haimen,91,CN,1634767971,77,23.1935,116.6142,77.59,12.17
Thai Binh,49,VN,1634770299,77,20.45,106.3333,73.4,5.39
Arrondissement de Clermont,83,FR,1634797254,80,49.5,2.4167,53.71,28.48
Santiago del Estero,0,AR,1634808868,34,-27.7951,-64.2615,66.81,8.79
Kalabo,100,ZM,1634788716,76,-14.97,22.6814,70.43,0.4
Kapaa,1,US,1634747731,76,22.0752,-159.319,80.58,14.97
Cabo San Lucas,5,MX,1634735911,73,22.8909,-109.9124,81.52,6.64
Yellowknife,100,CA,1634740659,89,62.456,-114.3525,41.41,11.99
Poconé,70,BR,1634807676,62,-16.2567,-56.6228,80.02,6.35
Moose Factory,97,CA,1634817394,71,51.2585,-80.6094,35.24,3.49
Vila Velha,75,BR,1634803546,88,-20.3297,-40.2925,66.15,9.22
Pevek,100,RU,1634760820,90,69.7008,170.3133,17.67,13.04
Saskylakh,100,RU,1634775348,96,71.9167,114.0833,18.57,8.79
Punta Arenas,75,CL,1634808183,53,-53.15,-70.9167,44.71,11.5
Palmer,90,US,1634814542,74,42.1584,-72.3287,62.53,3.44
Camacha,20,PT,1634800453,78,33.0833,-16.3333,70.54,11.5
Port Elizabeth,20,ZA,1634786925,94,-33.918,25.5701,59.29,4.61
Pathein,97,MM,1634772903,72,16.7833,94.7333,86.54,6.24
Tromsø,75,NO,1634797235,69,69.6496,18.957,30.85,3.0
George Town,20,MY,1634771031,74,5.4112,100.3354,84.13,2.3
São João da Barra,100,BR,1634803657,92,-21.6403,-41.0511,63.82,10.27
Port Alfred,68,ZA,1634786631,73,-33.5906,26.891,64.47,10.71
Taoudenni,0,ML,1634796897,32,22.6783,-3.9836,71.67,14.09
Basco,78,PH,1634766545,69,20.4487,121.9702,81.59,3.49
Hamilton,1,US,1634817245,79,39.1834,-84.5333,62.89,0.0
Ostrovnoy,100,RU,1634791707,92,68.0531,39.5131,31.3,18.63
Puerto del Rosario,0,ES,1634799586,83,28.5004,-13.8627,71.35,12.66
Upernavik,100,GL,1634816834,91,72.7868,-56.1549,30.51,19.6
Tongchuanshi,96,CN,1634770461,30,35.0806,109.0897,55.38,5.82
Hobart,40,AU,1634757024,43,-42.8794,147.3294,75.02,3.0
Beyneu,21,KZ,1634784173,66,45.3167,55.2,40.78,10.45
Cape Town,17,ZA,1634788639,69,-33.9258,18.4232,60.1,9.06
Darapidap,20,PH,1634766760,72,17.2131,120.4114,85.1,5.88
La Ronge,14,CA,1634737278,64,55.1001,-105.2842,33.91,10.02
Nikolskoye,100,RU,1634791800,89,59.7035,30.7861,54.88,11.79
Lavrentiya,100,RU,1634841609,99,65.5833,-171.0,32.4,1.57
Fukuechō,100,JP,1634765567,76,32.6881,128.8419,58.66,0.85
Montenegro,75,ME,1634792560,93,42.5,19.3,47.66,1.14
Brodokalmak,100,RU,1634783639,89,55.5748,62.082,31.46,16.55
Athens,20,GR,1634791160,75,37.9795,23.7162,60.17,1.01
Choszczno,100,PL,1634794542,68,53.169,15.4205,62.01,17.63
Cherskiy,99,RU,1634762637,100,68.75,161.3,-2.69,5.68
Severo-Kuril'sk,80,RU,1634760446,63,50.6789,156.125,37.49,19.93
Mīzan Teferī,77,ET,1634786643,70,6.9833,35.5833,62.22,3.31
Faanui,8,PF,1634744122,77,-16.4833,-151.75,79.34,6.13
Uusikaupunki,100,FI,1634794253,83,60.8004,21.4084,50.52,19.66
Kaeo,100,NZ,1634751301,97,-35.1,173.7833,61.32,7.85
Muisne,100,EC,1634727706,86,0.6,-80.0333,75.34,8.3
Liepāja,90,LV,1634793641,88,56.5419,21.0367,57.25,19.57
Thompson,98,CA,1634735579,76,55.7435,-97.8558,27.73,5.06
Geraldton,90,AU,1634765911,56,-28.7667,114.6,72.12,12.66
Ushtobe,100,KZ,1634778694,27,45.2514,77.9838,62.06,7.14
Chivay,93,PE,1634724936,22,-15.6383,-71.6011,51.31,2.44
Mayo,1,US,1634815297,83,38.8876,-76.5119,62.58,0.0
Tucupita,34,VE,1634810172,99,9.0622,-62.051,72.86,2.93
Saint George,1,US,1634737615,45,37.1041,-113.5841,64.35,1.01
Cidreira,53,BR,1634805348,77,-30.1811,-50.2056,62.24,16.6
Bowen,35,AU,1634758339,72,-20.0167,148.2333,80.8,12.41
Sakaiminato,91,JP,1634764694,55,35.55,133.2333,59.4,11.01
Oneonta,16,US,1634815223,85,42.4529,-75.0638,58.21,4.54
Avarua,75,CK,1634745804,69,-21.2078,-159.775,75.25,6.91
Katsuura,99,JP,1634762970,58,35.1333,140.3,62.71,9.31
Lüderitz,56,NA,1634789889,81,-26.6481,15.1594,56.62,11.45
Paranaíba,39,BR,1634806195,72,-19.6772,-51.1908,67.82,8.48
Yumen,52,CN,1634773678,19,40.2833,97.2,51.15,8.84
Khao Wong,69,TH,1634770653,68,16.7001,104.0902,88.47,3.29
Bardsīr,0,IR,1634782755,21,29.9227,56.5743,63.07,3.24
Porto-Novo,100,BJ,1634794536,94,6.4965,2.6036,74.91,4.21
Jagüey Grande,100,CU,1634815409,91,22.5269,-81.1286,74.05,5.75
Butaritari,50,KI,1634753537,74,3.0707,172.7902,81.68,12.82
Tabou,60,CI,1634796830,89,4.423,-7.3528,75.92,4.47
Saint-François,90,FR,1634796595,66,46.4154,3.9054,57.47,16.11
Saint Paul Harbor,92,US,1634748985,94,57.79,-152.4072,38.16,12.62
Erenhot,0,CN,1634770392,39,43.6475,111.9767,42.85,11.05
Broken Hill,53,AU,1634759273,16,-31.95,141.4333,85.24,8.95
Ziniaré,62,BF,1634795754,65,12.5822,-1.2983,79.2,5.95
Carnarvon,41,AU,1634766373,58,-24.8667,113.6333,72.27,14.65
Mayskiy,89,RU,1634788019,71,47.6931,40.1025,44.44,9.57
Reoti,12,IN,1634775849,63,25.85,84.3833,80.04,8.23
Ust'-Ishim,100,RU,1634781764,67,57.6935,71.1665,43.3,3.85
Nanortalik,32,GL,1634810156,54,60.1432,-45.2371,36.39,1.83
Ancud,100,CL,1634810134,84,-41.8697,-73.8203,47.73,5.95
Jackson,1,US,1634740222,92,42.4165,-122.8345,52.75,0.0
Chui,1,UY,1634805893,84,-33.6971,-53.4616,53.04,5.88
Hīt,5,IQ,1634786282,33,33.6416,42.8251,67.66,8.99
Tual,73,ID,1634762750,78,-5.6667,132.75,82.76,5.1
Melong,100,CM,1634792707,93,5.1218,9.9614,65.66,0.81
Provideniya,75,RU,1634841849,80,64.3833,-173.3,26.71,2.24
Magadan,13,RU,1634762924,36,59.5667,150.8,19.44,3.33
Berlevåg,100,NO,1634795307,78,70.8578,29.0864,35.6,27.78
Lamu,58,KE,1634784945,77,-2.2717,40.902,79.02,12.39
Manta,90,EC,1634727805,83,-0.95,-80.7333,73.18,8.05
Korla,4,CN,1634776445,20,41.7597,86.1469,59.14,1.77
Namatanai,55,PG,1634758119,72,-3.6667,152.4333,83.82,4.83
Asău,13,RO,1634791192,74,46.4333,26.4,40.28,7.78
College,75,US,1634749243,73,64.8569,-147.8028,30.99,0.0
Zemio,100,CF,1634789061,98,5.0314,25.1361,69.01,2.55
Beringovskiy,79,RU,1634756735,79,63.05,179.3167,17.87,4.56
Vestmannaeyjar,96,IS,1634804821,76,63.4427,-20.2734,44.8,29.89
Acarí,92,PE,1634725669,72,-15.4311,-74.6158,67.44,3.13
Rocha,0,UY,1634806047,93,-34.4833,-54.3333,49.42,6.53
Puerto Ayora,89,EC,1634730123,89,-0.7393,-90.3518,69.76,5.99
Laguna,90,US,1634739588,64,38.421,-121.4238,66.34,0.0
Lata,99,PT,1634799016,97,40.1629,-8.3327,59.04,3.13
Belmonte,100,BR,1634803441,94,-15.8631,-38.8828,70.3,6.96
Wilmington Island,1,US,1634815908,89,32.0036,-80.9737,64.98,0.0
San Patricio,8,US,1634733206,76,28.017,-97.5169,77.83,6.29
Yanam,100,IN,1634775905,62,16.7333,82.2167,88.2,0.87
Morgan City,37,US,1634731786,100,29.6994,-91.2068,75.99,4.74
Caravelas,100,BR,1634803433,91,-17.7125,-39.2481,71.58,14.9
Cedar City,1,US,1634737529,46,37.6775,-113.0619,50.4,4.61
Severo-Yeniseyskiy,88,RU,1634776952,64,60.3725,93.0408,39.74,5.93
Ustyuzhna,100,RU,1634790296,93,58.8394,36.4321,51.15,17.72
Raudeberg,100,NO,1634798398,91,61.9875,5.1352,41.86,7.0
Kautokeino,100,NO,1634796008,95,69.0125,23.0412,23.11,17.49
Talnakh,100,RU,1634780456,95,69.4865,88.3972,18.68,3.18
Skovorodino,23,RU,1634768570,41,53.9833,123.9167,43.47,8.12
Port Macquarie,46,AU,1634756553,65,-31.4333,152.9167,73.89,7.23
São Paulo de Olivença,100,BR,1634811236,99,-3.3783,-68.8725,72.64,1.61
Houma,23,US,1634731663,94,29.5958,-90.7195,76.98,5.12
Honningsvåg,20,NO,1634796115,69,70.9821,25.9704,35.13,19.57
Hamina,100,FI,1634792819,91,60.5697,27.1979,52.88,21.83
Plettenberg Bay,100,ZA,1634787443,55,-34.0527,23.3716,67.23,0.22
Petropavlovsk-Kamchatskiy,0,RU,1634760108,32,53.0452,158.6483,36.19,15.66
Along,100,IN,1634773484,100,28.1667,94.7667,71.74,0.56
Lompoc,1,US,1634739105,85,34.6391,-120.4579,59.31,0.0
Castlegar,100,CA,1634739590,93,49.2998,-117.6689,44.1,1.45
Severodvinsk,100,RU,1634790631,94,64.5635,39.8302,30.31,18.07
Chokurdakh,85,RU,1634766596,94,70.6333,147.9167,-12.69,2.77
Touros,68,BR,1634803134,83,-5.1989,-35.4608,79.7,6.22
Grants,1,US,1634736110,56,35.1473,-107.8514,37.63,0.0
Amga,100,RU,1634767690,82,60.8953,131.9608,30.54,6.11
Flers,67,FR,1634797895,81,48.7372,-0.5747,50.25,11.52
Singkang,87,MY,1634770290,66,2.1006,102.7994,86.05,5.7
Takoradze,100,GH,1634795508,91,4.8845,-1.7554,76.14,7.63
Saint-Philippe,37,RE,1634780448,73,-21.3585,55.7679,80.47,11.61
Sobolevo,100,RU,1634790741,81,54.4299,31.8996,48.22,16.91
Harper,59,LR,1634796916,87,4.375,-7.7169,76.46,3.47
Waingapu,99,ID,1634765561,53,-9.6567,120.2641,89.28,12.26
Necochea,0,AR,1634806797,84,-38.5473,-58.7368,59.04,12.1
Luena,81,AO,1634789536,98,-11.7833,19.9167,60.62,2.68
Departamento de Maldonado,0,UY,1634806174,87,-34.6667,-54.9167,54.79,8.97
Dębica,64,PL,1634792748,63,50.0515,21.4114,55.94,17.38
São Filipe,0,CV,1634801433,56,14.8961,-24.4956,81.91,9.78
Haltern am See,93,DE,1634796353,80,51.743,7.1816,57.69,24.0
Kalmunai,91,LK,1634775566,65,7.4167,81.8167,86.07,4.34
Vredendal,86,ZA,1634788773,70,-31.6683,18.5012,60.24,3.15
Vao,100,NC,1634753579,90,-22.6667,167.4833,71.01,16.35
Ngunguru,100,NZ,1634751092,98,-35.6167,174.5,61.16,15.46
Khandwa,6,IN,1634777571,51,21.8333,76.3333,77.22,2.48
Yinchuan,0,CN,1634771367,17,38.4681,106.2731,52.59,1.79
Viedma,1,AR,1634807631,71,-40.8135,-62.9967,59.97,13.04
Răstoliţa,24,RO,1634791580,80,46.9726,24.9929,45.21,1.48
Kamaishi,32,JP,1634762871,48,39.2667,141.8833,56.39,14.5
Yangi Marg`ilon,70,UZ,1634779809,41,40.4272,71.7189,60.22,4.61
Westport,1,US,1634814709,75,41.1415,-73.3579,68.83,4.0
Bilibino,100,RU,1634761163,96,68.0546,166.4372,3.47,2.8
Lorengau,72,PG,1634759432,75,-2.0226,147.2712,83.35,5.03
Kavieng,95,PG,1634758561,74,-2.5744,150.7967,83.5,6.67
Oistins,40,BB,1634809755,74,13.0667,-59.5333,82.49,23.02
Fort Nelson,0,CA,1634742003,91,58.8053,-122.7002,33.71,0.49
Marovoay,1,MG,1634782913,56,-16.1,46.6333,78.94,9.01
Malbork,100,PL,1634793784,72,54.0359,19.0266,61.05,15.57
Fairbanks,75,US,1634749218,76,64.8378,-147.7164,31.01,0.0
São Félix do Xingu,62,BR,1634807034,97,-6.6447,-51.995,72.34,1.21
Inongo,99,CD,1634790392,94,-1.95,18.2667,70.93,3.33
Urubichá,21,BO,1634809239,52,-15.3833,-62.95,75.31,2.64
Sitka,90,US,1634744770,81,57.0531,-135.33,48.09,5.75
Srednekolymsk,58,RU,1634764039,91,67.45,153.6833,1.89,1.9
Khandyga,100,RU,1634767166,85,62.6667,135.6,23.23,4.0
Safaga,0,EG,1634788010,56,26.7292,33.9365,73.08,18.99
Camopi,33,GF,1634807564,99,3.1655,-52.3158,71.65,1.41
Fortuna,1,US,1634740401,70,40.5982,-124.1573,61.36,3.0
Gamba,100,GA,1634792343,88,-2.65,10.0,75.22,3.13
Formosa do Rio Preto,80,BR,1634805192,63,-11.0483,-45.1931,76.14,0.67
Terney,0,RU,1634764594,30,45.0503,136.6092,45.07,3.78
Constitución,69,CL,1634810322,91,-35.3333,-72.4167,49.87,4.7
Mazara del Vallo,2,IT,1634793810,85,37.6641,12.588,68.0,11.52
Tessalit,2,ML,1634795570,28,20.1986,1.0114,71.42,7.63
Norman Wells,45,CA,1634744306,94,65.282,-126.8329,24.76,4.03
Arraial do Cabo,100,BR,1634803818,79,-22.9661,-42.0278,65.48,3.24
Hūn,1,LY,1634792464,61,29.1268,15.9477,63.27,6.4
Quatre Cocos,18,MU,1634780031,74,-20.2078,57.7625,77.09,10.78
Cracow,90,US,1634817192,88,43.7424,-82.8199,59.31,1.99
Verkhnevilyuysk,100,RU,1634771011,98,63.4453,120.3167,33.67,8.39
Seshcha,100,RU,1634790306,73,53.7361,33.3387,48.54,17.02
Mata,100,PT,1634798845,90,40.683,-7.4592,55.92,3.6
Klaksvík,98,FO,1634801267,69,62.2266,-6.589,40.12,31.92
Kamina,100,CD,1634788464,94,-8.7386,24.9906,63.59,2.48
Guánica,84,PR,1634811763,89,17.9716,-66.908,80.19,3.0
Margate,100,GB,1634797705,83,51.3813,1.3862,50.7,5.99
Alofi,75,NU,1634748350,64,-19.0595,-169.9187,76.15,21.34
Aykhal,100,RU,1634773764,95,66.0,111.5,35.06,25.66
Opotiki,100,NZ,1634750241,70,-38.0833,177.2833,61.39,6.22
Inírida,95,CO,1634724945,98,3.8653,-67.9239,73.08,1.54
Kloulklubed,41,PW,1634762964,69,7.0419,134.2556,86.5,2.91
Gazojak,84,TM,1634782344,52,41.1875,61.4036,49.62,16.73
Säkylä,100,FI,1634794075,83,61.0333,22.3333,50.04,12.15
Salima,72,MW,1634785949,70,-13.7804,34.4587,71.6,9.6
Champerico,95,GT,1634731175,85,14.3,-91.9167,82.35,6.73
Lastoursville,100,GA,1634791772,100,-0.8143,12.7287,71.11,2.04
Cayenne,0,GF,1634807649,83,4.9333,-52.3333,82.09,3.0
Beloha,93,MG,1634782806,84,-25.1667,45.05,66.85,14.32
Marsh Harbour,94,BS,1634814650,56,26.5412,-77.0636,80.26,14.85
Barillas,100,GT,1634731101,99,15.8036,-91.3158,68.34,1.05
Križevci,98,HR,1634793523,68,46.0219,16.5425,59.81,18.05
Kahului,20,US,1634746988,77,20.8947,-156.47,77.02,14.97
Odda,100,NO,1634797693,97,60.0691,6.5457,43.77,6.29
Dhidhdhoo,100,MV,1634777634,77,6.8833,73.1,81.68,8.88
Torbat-e Jām,1,IR,1634782111,53,35.244,60.6225,52.66,18.66
Newala,80,TZ,1634784931,84,-10.9431,39.2787,67.26,3.24
Snyder,1,US,1634734294,45,32.7179,-100.9176,68.52,8.05
Balikpapan,64,ID,1634766771,62,-1.2675,116.8289,85.32,7.05
Evensk,43,RU,1634761336,70,61.95,159.2333,12.42,7.67
Lakes Entrance,75,AU,1634757283,69,-37.8811,147.981,75.58,12.53
Pīpār,0,IN,1634778483,37,26.3856,73.5378,80.53,10.69
Kuantan,92,MY,1634770241,65,3.8077,103.326,85.68,1.3
Henties Bay,91,NA,1634790357,91,-22.116,14.2845,57.51,4.68
Dogondoutchi,42,NE,1634794526,57,13.6393,4.0287,83.05,9.78
Wadi Maliz,0,TN,1634794698,76,36.4681,8.5495,59.77,4.56
Kruisfontein,99,ZA,1634787121,53,-34.0033,24.7314,62.4,4.54
Opuwo,1,NA,1634790680,43,-18.0607,13.84,61.05,2.44
Pokosnoye,7,RU,1634774266,52,55.5258,101.0536,44.35,9.1
Caucayá,100,CO,1634726411,99,-0.1934,-74.7819,71.55,1.63
Moorhead,75,US,1634734337,71,46.8739,-96.7676,38.98,5.01
Kandrian,80,PG,1634758694,67,-6.2167,149.55,86.02,6.69
Seoul,79,KR,1634766332,28,37.5683,126.9778,59.41,3.58
Aiken,1,US,1634816158,86,33.5835,-81.5998,64.06,0.0
Kirakira,79,SB,1634755529,75,-10.4544,161.9205,82.8,4.61
Souillac,4,MU,1634780073,73,-20.5167,57.5167,77.36,9.75
Tuatapere,0,NZ,1634751834,57,-46.1333,167.6833,54.18,6.58
Portland,75,US,1634740441,84,45.5234,-122.6762,57.69,3.0
Karasburg,17,NA,1634788945,65,-28.0167,18.75,65.77,18.66
Pingliang,93,CN,1634771068,34,35.5392,106.6861,49.73,6.2
Longyearbyen,20,SJ,1634804977,67,78.2186,15.6401,12.04,10.36
Granby,88,CA,1634814913,95,45.4001,-72.7324,57.25,6.55
Kiruna,90,SE,1634796283,93,67.8557,20.2251,22.12,4.61
Edéa,99,CM,1634792605,99,3.8,10.1333,72.14,2.48
Chupa,100,RU,1634792711,98,66.27,33.0549,32.38,9.44
Matara,52,LK,1634775807,72,5.9485,80.5353,83.79,7.45
Tombouctou,5,ML,1634796523,35,20.0,-3.0,69.15,11.21
Sobradinho,81,BR,1634803644,89,-12.8333,-39.1,72.34,1.54
Malindi,77,KE,1634785090,78,-3.2175,40.1191,77.79,13.27
Trincomalee,68,LK,1634775759,74,8.5711,81.2335,82.83,1.34
Putina,46,PE,1634724424,67,-15.4667,-69.4333,49.01,5.06
Canberra,90,AU,1634757200,62,-35.2835,149.1281,69.75,1.01
Vanino,13,RU,1634764094,44,49.0869,140.2543,40.35,2.17
Ayagoz,100,KZ,1634778355,28,47.9714,80.4392,52.99,6.38
Mossamedes,53,AO,1634791231,88,-15.1961,12.1522,64.69,4.45
Coyhaique,75,CL,1634809362,61,-45.5752,-72.0662,42.75,2.3
Ingham,75,US,1634817473,76,42.6,-84.3833,62.55,0.0
Segovia,66,ES,1634798052,88,41.1667,-4.0,54.82,6.22
Port Blair,100,IN,1634773137,72,11.6667,92.75,84.54,7.27
Valleyview,0,CA,1634740158,62,55.0667,-117.2859,40.1,5.46
Falmouth,28,GB,1634799122,72,50.1544,-5.0711,52.7,16.49
Mazagão,17,BR,1634807167,84,-0.115,-51.2894,84.25,4.63
Clyde River,90,CA,1634818653,93,70.4692,-68.5914,28.63,13.8
Coquimbo,0,CL,1634810432,82,-29.9533,-71.3436,53.33,2.3
Alice Springs,0,AU,1634761582,17,-23.7,133.8833,90.95,10.36
Ussuriysk,0,RU,1634765607,35,43.7986,131.9508,48.02,6.08
Sørland,100,NO,1634798034,98,67.667,12.6934,37.27,19.1
Arnprior,94,CA,1634815785,90,45.4334,-76.3494,56.34,5.28
Sechura,62,PE,1634727620,81,-5.5569,-80.8222,66.16,12.57
Ailigandí,70,PA,1634727607,84,9.2333,-78.0167,78.26,5.5
Bambous Virieux,13,MU,1634780025,74,-20.3428,57.7575,77.22,10.89
Mount Isa,40,AU,1634760396,35,-20.7333,139.5,85.77,8.05
Káto Mazaráki,3,GR,1634791662,81,38.0667,21.65,54.25,1.72
Dombarovskiy,96,RU,1634783663,73,50.7587,59.5386,32.36,17.45
Berdigestyakh,100,RU,1634769189,84,62.0989,126.6992,31.3,7.63
Petropavl,100,KZ,1634781843,70,54.8753,69.1628,44.24,15.23
Amalāpuram,98,IN,1634775946,64,16.5833,82.0167,88.18,0.6
Pitimbu,44,BR,1634802871,82,-7.4706,-34.8086,79.39,5.79
Gigmoto,100,PH,1634765642,78,13.7796,124.39,83.5,5.14
Turkmenabat,100,TM,1634781664,74,39.0733,63.5786,54.9,18.81
Bozoum,100,CF,1634791221,97,6.3193,16.3799,67.12,3.22
Forsytheganj,100,BY,1634791038,59,52.6333,29.7333,52.12,14.65
Verkhoyansk,83,RU,1634768953,91,67.5447,133.385,16.34,2.26
Aklavik,100,CA,1634747127,87,68.2191,-135.0107,21.33,3.04
Narsaq,15,GL,1634810495,36,60.9167,-46.05,26.82,6.04
Phuket,40,TH,1634771649,83,8.0,98.25,84.09,3.44
Port Lincoln,1,AU,1634760419,54,-34.7333,135.8667,67.93,12.46
Svay Rieng,99,KH,1634769979,77,11.0879,105.7993,82.04,4.76
Vostok,1,RU,1634764895,45,46.4856,135.8833,33.84,6.33
Puli,92,TW,1634766965,60,23.9664,120.9695,80.22,5.61
Dāmghān,54,IR,1634783679,57,36.1683,54.348,54.07,5.93
Cabedelo,37,BR,1634802900,84,-6.9811,-34.8339,79.47,6.24
San Cristobal,37,VE,1634812553,93,7.7669,-72.225,69.98,1.92
Petropavlovka,1,RU,1634772647,51,50.6114,105.3196,42.03,3.4
Juan Lacaze,1,UY,1634806795,80,-34.4342,-57.4381,59.11,14.25
Vila Franca do Campo,8,PT,1634802946,68,37.7167,-25.4333,61.21,2.77
Torbay,100,CA,1634810319,95,47.6666,-52.7314,48.58,4.0
Baoding,0,CN,1634769180,26,38.8511,115.4903,60.85,4.52
Sarangani,69,PH,1634765000,73,5.4033,125.4636,83.66,6.15
Loandjili,100,CG,1634791801,83,-4.7561,11.8578,76.44,2.39
Manggar,100,ID,1634768752,66,-2.8833,108.2667,84.87,5.48
Tiznit Province,26,MA,1634798601,30,29.5833,-9.5,69.58,3.06
Santa Cruz de La Palma,0,ES,1634800533,78,28.6835,-17.7642,71.74,12.66
Shitanjing,0,CN,1634771405,19,39.2342,106.3439,47.95,1.9
Rosetown,0,CA,1634737504,33,51.5501,-108.0014,34.99,14.05
Hammerfest,75,NO,1634796522,80,70.6634,23.6821,30.65,19.57
Marystown,100,CA,1634810852,100,47.1666,-55.1483,48.85,12.33
Qasigiannguit,98,GL,1634813804,80,68.8193,-51.1922,26.85,3.31
Ugoofaaru,99,MV,1634777603,68,5.6667,73.0,82.18,9.17
Andra,76,RU,1634783898,85,62.5147,65.8878,30.02,3.2
San Miguel de Tucumán,1,AR,1634809158,49,-26.8241,-65.2226,68.0,6.91
Columbus,75,US,1634816934,82,39.9612,-82.9988,59.52,3.44
Nouadhibou,0,MR,1634799940,52,20.931,-17.0347,74.08,12.73
Conde,40,BR,1634802905,83,-7.2597,-34.9075,78.26,5.75
Mahibadhoo,83,MV,1634777525,69,3.7833,72.9667,82.11,11.03
Monrovia,93,LR,1634797743,86,6.3005,-10.7969,77.31,4.9
Saldanha,69,ZA,1634788817,92,-33.0117,17.9442,57.72,14.52
Kholodnyy,22,RU,1634764207,85,62.7167,147.95,-1.34,0.74
Katangli,23,RU,1634763658,57,51.7102,143.2326,37.11,10.78
Cochabamba,100,BO,1634809905,33,-17.3895,-66.1568,67.8,3.44
Timrå,90,SE,1634795570,96,62.487,17.3257,41.68,2.3
Chapais,100,CA,1634815848,93,49.7834,-74.8492,38.98,7.16
Caiapônia,93,BR,1634806486,84,-16.9567,-51.8103,68.94,3.67
Karwar,81,IN,1634777753,71,14.8,74.1333,81.54,3.33
Tommot,100,RU,1634768713,84,58.9564,126.2925,34.36,8.46
Bandarbeyla,40,SO,1634783103,78,9.4942,50.8122,77.85,5.39
Puri,100,IN,1634775184,65,19.8,85.85,86.52,9.98
Mahébourg,10,MU,1634780035,74,-20.4081,57.7,77.25,11.01
Batemans Bay,67,AU,1634756916,68,-35.7167,150.1833,71.2,7.96
Mersing,37,MY,1634770055,59,2.4312,103.8405,87.35,1.63
Rome,1,US,1634815379,85,43.2128,-75.4557,60.66,3.44
Māngrol,33,IN,1634779027,59,21.1167,70.1167,80.08,5.5
Hualmay,90,PE,1634726596,87,-11.0964,-77.6139,63.03,9.51
Coahuayana Viejo,30,MX,1634734209,92,18.7333,-103.6833,78.69,2.71
Považská Bystrica,77,SK,1634793369,100,49.1215,18.4217,54.55,2.3
San Quintín,2,MX,1634737772,78,30.4833,-115.95,63.39,9.22
Puerto Escondido,96,MX,1634732483,83,15.85,-97.0667,79.05,3.58
Iralaya,100,HN,1634729123,85,15.0,-83.2333,79.3,6.46
Liverpool,75,GB,1634798993,83,53.4106,-2.9779,46.69,14.0
Itoman,75,JP,1634765472,80,26.1247,127.6694,82.42,20.71
Canchungo,99,GW,1634799267,87,12.0672,-16.0333,77.7,5.01
Tateyama,100,JP,1634763064,54,34.9833,139.8667,66.15,6.24
Novyy Urgal,100,RU,1634766150,72,51.0736,132.5642,30.54,2.48
Bubaque,100,GW,1634799182,79,11.2833,-15.8333,81.86,11.54
Port Augusta,0,AU,1634760116,29,-32.5,137.7667,85.71,8.32
Anshun,100,CN,1634770697,88,26.25,105.9333,49.93,7.14
Tsnori,66,GE,1634786085,83,41.6209,45.9694,51.04,3.02
Arrondissement de Montauban,100,FR,1634796967,71,44.0833,1.5,63.28,9.08
Los Llanos de Aridane,0,ES,1634800569,78,28.6585,-17.9182,67.75,12.66
Faya,81,SA,1634785532,30,18.3851,42.4509,59.52,5.7
Khryashchevka,100,RU,1634786530,68,53.8119,49.0916,36.32,18.14
Marawi,100,PH,1634765398,67,7.9986,124.2928,75.65,5.44
Nantucket,20,US,1634813937,86,41.2835,-70.0995,64.96,9.22
Kailua,1,US,1634747318,70,21.4022,-157.7394,80.58,8.05
Blythe,0,US,1634737634,33,33.6103,-114.5964,71.47,4.52
Urmary,100,RU,1634787052,93,55.6789,47.944,33.78,17.85
Pinawa,5,CA,1634734442,70,50.1489,-95.8811,31.3,4.43
Zabaykal'sk,1,RU,1634769661,60,49.6333,117.3167,37.56,9.17
Lanaken,90,BE,1634796626,84,50.8943,5.6501,56.14,7.0
Amapá,100,BR,1634807389,88,1.0,-52.0,73.18,1.99
Ossora,89,RU,1634759918,59,59.2353,163.0719,22.62,13.94
Kharp,99,RU,1634784985,95,66.8014,65.8081,24.51,0.29
Anadyr,75,RU,1634757567,100,64.75,177.4833,21.7,11.18
Balotra,0,IN,1634778766,42,25.8333,72.2333,82.24,9.82
Ryazan,100,RU,1634788881,94,54.6197,39.74,45.5,4.92
Huaibei,92,CN,1634768541,61,33.9744,116.7917,59.83,7.43
Havelock,0,US,1634815113,87,34.8791,-76.9013,70.95,5.7
Yar-Sale,23,RU,1634783786,83,66.8333,70.8333,28.87,6.58
Guerrero Negro,1,MX,1634737177,80,27.9769,-114.0611,65.16,13.04
Cavalcante,89,BR,1634805601,56,-13.7975,-47.4583,76.44,1.03
Hansot,1,IN,1634778406,61,21.5833,72.8,80.53,4.05
Sinop Province,0,TR,1634788762,80,41.7711,34.8709,43.02,10.96
Palpa,96,PE,1634725850,62,-14.5336,-75.1856,69.58,1.21
Turan,20,VN,1634769631,66,16.0678,108.2208,87.78,6.91
Iqaluit,90,CA,1634816494,92,63.7506,-68.5145,29.93,0.0
Nha Trang,100,VN,1634769220,72,12.25,109.1833,86.0,4.97
Te Anau,6,NZ,1634751898,57,-45.4167,167.7167,56.35,3.13
Malatya Province,0,TR,1634787766,75,38.5,38.0,32.05,4.61
Menomonie,100,US,1634732996,93,44.8755,-91.9193,57.02,9.22
Guiuan,73,PH,1634765194,72,11.0333,125.7247,83.79,3.15
Kargopol',100,RU,1634790172,98,61.5071,38.9456,34.65,8.12
Niterói,90,BR,1634804080,93,-22.8833,-43.1036,65.59,2.3
The Pas,23,CA,1634736148,63,53.8251,-101.2541,31.05,3.42
Esperance,7,AU,1634763829,54,-33.8667,121.9,64.96,20.74
Montepuez,34,MZ,1634784892,77,-13.1256,38.9997,68.2,8.28
Nyurba,100,RU,1634771452,98,63.2842,118.3319,35.55,9.66
Conceição do Araguaia,61,BR,1634806303,69,-8.2578,-49.2647,77.65,3.91
Semenyih,96,MY,1634770558,63,2.9516,101.843,89.19,5.3
Mitchell,90,US,1634734367,93,43.7094,-98.0298,38.1,8.99
Aventura,90,US,1634815356,74,25.9565,-80.1392,81.01,5.01
Asaba,100,NG,1634793531,99,6.2006,6.7338,73.8,2.57
Pangody,100,RU,1634782627,81,65.85,74.4859,31.24,3.31
Talant,90,FR,1634796416,62,47.3369,5.0089,56.41,16.11
Abhā,0,SA,1634785511,25,18.2164,42.5053,59.25,0.0
Ürümqi,0,CN,1634776260,28,43.801,87.6005,54.55,2.24
Tocopilla,39,CL,1634810624,65,-22.092,-70.1979,62.58,6.33
Voh,100,NC,1634754338,96,-20.9667,164.7,66.9,2.39
Murgab,90,TM,1634781939,71,37.4966,61.9714,53.47,11.5
Leshukonskoye,100,RU,1634789287,82,64.8989,45.7622,29.28,14.18
Gīdam,12,IN,1634776211,63,18.9833,81.4,82.42,3.18
Sangmélima,100,CM,1634792122,99,2.9333,11.9833,66.7,0.65
Alihe,58,CN,1634768221,43,50.5667,123.7167,43.83,7.0
Lovington,0,US,1634734892,30,32.944,-103.3485,67.64,7.99
Virginia,1,US,1634815425,84,37.5481,-77.4467,58.24,0.0
Fare,28,PF,1634743935,81,-16.7,-151.0167,78.06,7.58
Kaduqli,100,SD,1634788237,83,11.0167,29.7167,74.19,1.25
Cam Ranh,20,VN,1634769211,70,11.9214,109.1591,85.96,5.75
Alexandria,9,EG,1634789223,56,31.2156,29.9553,70.79,10.56
Salalah,20,OM,1634782670,73,17.0151,54.0924,78.89,2.3
Port Hardy,77,CA,1634742078,89,50.6996,-127.4199,49.01,15.82
Kaihua,100,CN,1634770941,92,23.3687,104.28,54.14,6.64
Macon,90,US,1634731896,88,39.8667,-88.9668,66.87,9.22
Morros,21,BR,1634805535,67,-9.4467,-46.3003,76.86,3.38
Atherton,94,GB,1634798891,82,53.5237,-2.4935,46.29,11.01
Padang,84,ID,1634770739,76,-0.9492,100.3543,84.25,4.23
Itapeva,99,BR,1634805403,88,-23.9822,-48.8756,55.63,10.07
Barra de Tecoanapa,100,MX,1634732919,89,16.5167,-98.75,77.97,4.25
San Carlos,12,VE,1634811767,92,9.6612,-68.5827,72.77,3.91
Derzhavīnsk,99,KZ,1634782072,90,51.1,66.3167,36.64,16.15
Portree,79,GB,1634800316,72,57.4129,-6.1942,44.53,14.99
Changli,1,CN,1634768363,32,39.7042,119.1506,58.64,5.23
Trairi,100,BR,1634804137,84,-3.2778,-39.2689,78.6,6.78
Río Gallegos,0,AR,1634807984,70,-51.6226,-69.2181,39.25,4.61
Husavik,91,IS,1634804771,66,66.0449,-17.3389,26.8,12.48
Abapó,37,BO,1634809185,57,-18.8333,-63.4667,64.35,3.42
Jalu,5,LY,1634791114,54,29.0331,21.5482,66.15,9.08
Kibala,100,TD,1634790877,91,9.1104,18.3463,71.37,6.71
Fuzhou,100,CN,1634767476,94,26.0614,119.3061,65.75,1.52
Tsaratanana,0,MG,1634782634,56,-16.7833,47.65,74.73,5.08
Urambo,100,TZ,1634786941,59,-5.0667,32.05,68.16,4.34
Pangoa,74,PE,1634725441,84,-12.1167,-73.0,70.52,2.06
Pisco,100,PE,1634726137,82,-13.7,-76.2167,60.85,13.8
Puerto Madero,75,MX,1634731315,100,14.7208,-92.4215,75.4,3.44
Mairiporã,75,BR,1634804892,88,-23.3186,-46.5867,58.55,8.05
Vardø,100,NO,1634794605,85,70.3705,31.1107,34.0,25.3
Biltine,92,TD,1634790514,23,14.5333,20.9167,81.07,5.17
Yulara,0,AU,1634762189,13,-25.2406,130.9889,89.44,10.36
Calabozo,32,VE,1634811456,77,8.9242,-67.4293,76.53,4.59
Nicosia,20,CY,1634788652,72,35.1667,33.3667,63.32,8.05
Bontang,100,ID,1634766673,63,0.1333,117.5,86.02,2.37
Ziro,100,IN,1634773678,100,27.6333,93.8333,57.45,1.12
Santa Rosa,96,PH,1634766454,70,14.3122,121.1114,89.11,3.67
Perth,40,AU,1634765414,71,-31.9333,115.8333,69.04,13.8
Pangnirtung,17,CA,1634816437,78,66.1451,-65.7125,28.04,4.79
Poum,100,NC,1634754541,79,-20.2333,164.0167,69.12,17.34
Half Moon Bay,90,US,1634739764,93,37.4636,-122.4286,64.31,6.91
Chumphon,88,TH,1634771616,68,10.3333,98.8333,83.16,0.98
Merritt,52,CA,1634740424,86,50.1123,-120.7942,47.44,5.06
Sittwe,99,MM,1634773509,77,20.15,92.9,83.98,5.28
Hasaki,92,JP,1634762881,49,35.7333,140.8333,66.29,8.57
Ust'-Ilimsk,47,RU,1634774240,61,58.0006,102.6619,45.34,7.45
Avigliano,20,IT,1634793282,96,40.7329,15.72,47.57,7.0
Muros,90,ES,1634799395,95,42.7762,-9.0603,60.24,5.21
Pochutla,98,MX,1634732334,91,15.7432,-96.4661,75.81,3.62
Waddān,1,LY,1634792420,64,29.1614,16.139,63.54,8.81
Goderich,94,CA,1634816928,83,43.7501,-81.7165,60.91,11.77
Nānākuli,1,US,1634747417,57,21.3906,-158.1547,80.55,4.61
Mandera,96,KE,1634784996,69,3.9366,41.867,78.19,11.68
Sola,100,VU,1634754014,80,-13.8833,167.55,81.21,15.66
Suratgarh,0,IN,1634778560,27,29.3167,73.9,83.93,15.21
Vuktyl,96,RU,1634786258,92,63.8567,57.3094,29.61,5.17
Tres Arroyos,0,AR,1634807180,80,-38.3739,-60.2798,57.06,14.83
Jardim,1,BR,1634807285,63,-21.4803,-56.1381,67.91,4.97
Kulhudhuffushi,100,MV,1634777629,75,6.6221,73.07,81.72,8.5
Meulaboh,100,ID,1634771983,82,4.1363,96.1285,77.79,3.24
Örnsköldsvik,90,SE,1634795411,100,63.2909,18.7153,40.82,4.61
Phalaborwa,47,ZA,1634786212,54,-23.943,31.1411,63.03,0.45
Tura,79,IN,1634774430,79,25.5198,90.2201,78.69,4.99
Presidencia Roque Sáenz Peña,57,AR,1634808013,45,-26.7852,-60.4388,62.98,6.4
Manokwari,58,ID,1634762649,67,-0.8667,134.0833,85.1,8.72
Whitehorse,100,CA,1634745300,76,60.7161,-135.0538,35.02,6.67
Brae,90,GB,1634799651,63,60.3964,-1.353,39.11,33.84
Ballina,45,AU,1634756559,75,-28.8667,153.5667,72.79,4.0
Shellbrook,0,CA,1634737311,56,53.2168,-106.4011,30.9,8.25
Odenthal,40,DE,1634796289,67,51.0348,7.1182,57.58,8.01
Brewster,1,US,1634814791,82,41.3973,-73.6171,66.45,0.0
Ust'-Kan,78,RU,1634777621,48,50.9276,84.761,44.37,6.26
Havre-St-Pierre,11,CA,1634813193,86,50.2334,-63.5986,41.97,7.61
São José da Coroa Grande,10,BR,1634802885,86,-8.8978,-35.1478,76.37,6.15
Marrakesh,0,MA,1634798364,63,31.6315,-8.0083,62.67,4.61
Arona,0,ES,1634800240,53,28.0996,-16.681,71.8,18.41
Port-Gentil,100,GA,1634792724,85,-0.7193,8.7815,77.49,9.17
Bereda,77,ES,1634799070,97,43.2686,-7.5406,53.42,1.88
Nísia Floresta,98,BR,1634803032,89,-6.0911,-35.2086,79.61,3.49
Villarrica,6,PY,1634807114,75,-25.75,-56.4333,61.32,2.42
San Jose,90,US,1634739627,87,37.3394,-121.895,64.54,11.5
Mergen,18,CN,1634767717,47,49.1833,125.2167,44.65,5.66
Erdenet,0,MN,1634772779,36,49.0333,104.0833,39.83,4.7
Grand Gaube,25,MU,1634780066,69,-20.0064,57.6608,77.38,5.99
Avera,86,US,1634816356,60,33.194,-82.5271,62.71,4.14
Apastepeque,100,SV,1634730393,97,13.6667,-88.7833,70.41,0.72
Challans,5,FR,1634798023,70,46.8436,-1.8749,55.96,18.54
Amparafaravola,58,MG,1634782458,75,-17.5833,48.2167,64.65,1.88
Algiers,0,DZ,1634796040,37,36.7525,3.042,67.82,4.61
Dwārka,5,IN,1634779360,51,22.2394,68.9678,81.12,6.67
Merauke,96,ID,1634760801,68,-8.4667,140.3333,85.64,13.78
Chumikan,100,RU,1634765924,73,54.7183,135.315,34.66,19.17
Sühbaatar,0,MN,1634772393,42,50.2314,106.2078,45.09,7.25
Nizwá,63,OM,1634782141,52,22.9333,57.5333,77.95,1.61
Brighton,100,GB,1634798010,90,50.8284,-0.1395,50.56,14.0
Saryozek,100,KZ,1634778619,25,44.3583,77.9753,58.12,0.94
Xining,99,CN,1634772321,76,36.6167,101.7667,42.1,1.32
